{
  "type": "FeatureCollection",
  "features": [
    {
      "type": "Feature",
      "properties": {
        "type": "museum",
        "id" : "ce9f5be2-419a-11ee-be56-0242ac120002",
        "name": "Museo di Ustica",
        "rank": 0
      },
      "geometry": {
        "type": "Point",
        "coordinates": [
          11.35037899017334,
          44.5131707599374
        ]
      }
    },
    {
      "type": "Feature",
      "properties": {
        "type": "museum",
        "id" : "ce9f6092-419a-11ee-be56-0242ac120002",
        "name": "Museo Medievale",
        "rank": 0
      },
      "geometry": {
        "type": "Point",
        "coordinates": [
          11.341838836669922,
          44.49613799525846
        ]
      }
    },
    {
      "type": "Feature",
      "properties": {
        "type": "museum",
        "id" : "ce9f6286-419a-11ee-be56-0242ac120002",
        "name": "MAMBO",
        "rank": 0
      },
      "geometry": {
        "type": "Point",
        "coordinates": [
          11.336560249328613,
          44.502076307564394
        ]
      }
    },
    {
      "type": "Feature",
      "properties": {
        "type": "museum",
        "id" : "ce9f642a-419a-11ee-be56-0242ac120002",
        "name": "Museo della Tappezzeria",
        "rank": 0
      },
      "geometry": {
        "type": "Point",
        "coordinates": [
          11.314973831176758,
          44.48771924822692
        ]
      }
    },
    {
      "type": "Feature",
      "properties": {
      "type": "museum",
      "id" : "ce9f65c4-419a-11ee-be56-0242ac120002",
      "name": "Casa Museo Carducci",
      "rank": 0
       },
      "geometry": {
        "type": "Point",
        "coordinates": [
          11.357331275939941,
          44.487841711438904
        ]
      }
    }
  ]
}